[{
    "sorting":1,
    "lat": 37.48345439475643, 
    "lng":  126.89367757219927,
    "id":"hndsolution",
    "name":"coffeebean",
    "img":"assets/img/cafe.png", 
    "phone":"01031469445",
    "region":"seoul"
},
{
    "sorting":1,
    "lat": 37.48376088529319,  
    "lng": 126.89178929721764
    ,
    "id":"sam",
    "name":"naver",
    "img":"assets/img/cafe.png", 
    "phone":"099",
    "region":"maylin"
},
{
    "sorting":2,
    "lat": 37.483451072973544, 
    "lng": 126.87640291149755,
    "id":"sams",
    "name":"japanese",
    "img":"assets/img/restaurant.png", 
    "phone":"099",
    "region":"seoul"
},
{
    "sorting":2,
    "lat": 37.4839822387878, 
    "lng": 126.89423547162568,
    "id":"jae",
    "name":"chineese",
    "img":"assets/img/restaurant.png", 
    "phone":"099",
    "region":"seoul"
},
{
    "sorting":1,
    "id": "8D5D-4CD323560F59",
    "lat": 37.8835514,
    "lng": 124.8931064,
    "name":"starbucks",
    "phone":"01031469445",
    "img":"assets/img/cafe.png",
    "region":"newyork"
 },{
    "sorting":3,
    "id": "E3E0D2C5-CB82",
    "lat": 37.48168353592619,
    "lng": 126.89350591083732,
    "name":"nexon",
    "phone":"01027611426",
    "img":"",
    "region":"newyork" 
 }
]